[
  {
    "lat": 37.47956,
    "lng": 127.00016,
    "name": "아이리스",
    "address": "서울 서초구 방배동",
    "city": "서울",
    "gu": "서초구",
    "dong": "방배동",
    "constructionYear": 2003,
    "totalUnits": 16,
    "dealPrice": "8억",
    "leasePrice": null,
    "rentPrice": null,
    "tradeTypes": "매매",
    "dealCount": 1,
    "leaseCount": 0,
    "rentCount": 0,
    "minArea": 63.55,
    "maxArea": 63.55
  },
  {
    "lat": 37.481181,
    "lng": 127.006941,
    "name": "서초e-편한세상1차",
    "address": "서울 서초구 방배동",
    "city": "서울",
    "gu": "서초구",
    "dong": "방배동",
    "constructionYear": 2004,
    "totalUnits": 154,
    "dealPrice": "24억",
    "leasePrice": "15억",
    "rentPrice": null,
    "tradeTypes": "매매,전세",
    "dealCount": 27,
    "leaseCount": 1,
    "rentCount": 0,
    "minArea": 158.86,
    "maxArea": 158.86
  },
  {
    "lat": 37.475114,
    "lng": 127.00071,
    "name": "서초라임스(도시형)",
    "address": "서울 서초구 방배동",
    "city": "서울",
    "gu": "서초구",
    "dong": "방배동",
    "constructionYear": 2019,
    "totalUnits": 10,
    "dealPrice": "9억",
    "leasePrice": null,
    "rentPrice": null,
    "tradeTypes": "매매",
    "dealCount": 1,
    "leaseCount": 0,
    "rentCount": 0,
    "minArea": 61.05,
    "maxArea": 61.05
  },
  {
    "lat": 37.484204,
    "lng": 127.008541,
    "name": "로얄파크",
    "address": "서울 서초구 방배동",
    "city": "서울",
    "gu": "서초구",
    "dong": "방배동",
    "constructionYear": 2005,
    "totalUnits": 13,
    "dealPrice": "15억",
    "leasePrice": null,
    "rentPrice": null,
    "tradeTypes": "매매",
    "dealCount": 1,
    "leaseCount": 0,
    "rentCount": 0,
    "minArea": 151.2,
    "maxArea": 151.2
  },
  {
    "lat": 37.482886,
    "lng": 126.995731,
    "name": "엘루크방배서리풀(도시형)",
    "address": "서울 서초구 방배동",
    "city": "서울",
    "gu": "서초구",
    "dong": "방배동",
    "constructionYear": 2024,
    "totalUnits": 60,
    "dealPrice": "10억",
    "leasePrice": "6억",
    "rentPrice": null,
    "tradeTypes": "매매,전세",
    "dealCount": 8,
    "leaseCount": 50,
    "rentCount": 0,
    "minArea": 40.45,
    "maxArea": 60.17
  },
  {
    "lat": 37.477688,
    "lng": 127.005111,
    "name": "방배래미안아트힐",
    "address": "서울 서초구 방배동",
    "city": "서울",
    "gu": "서초구",
    "dong": "방배동",
    "constructionYear": 2004,
    "totalUnits": 588,
    "dealPrice": "27억",
    "leasePrice": "13억",
    "rentPrice": "0억",
    "tradeTypes": "매매,전세,월세",
    "dealCount": 41,
    "leaseCount": 10,
    "rentCount": 4,
    "minArea": 136.81,
    "maxArea": 201.28
  },
  {
    "lat": 37.482615,
    "lng": 127.009206,
    "name": "더샵오데움(101,102동)",
    "address": "서울 서초구 방배동",
    "city": "서울",
    "gu": "서초구",
    "dong": "방배동",
    "constructionYear": 2005,
    "totalUnits": 95,
    "dealPrice": "39억",
    "leasePrice": "29억",
    "rentPrice": "0억",
    "tradeTypes": "매매,전세,월세",
    "dealCount": 34,
    "leaseCount": 16,
    "rentCount": 6,
    "minArea": 232.07,
    "maxArea": 270.34
  },
  {
    "lat": 37.480168,
    "lng": 126.997943,
    "name": "방배현대멤피스Ⅱ",
    "address": "서울 서초구 방배동",
    "city": "서울",
    "gu": "서초구",
    "dong": "방배동",
    "constructionYear": 2002,
    "totalUnits": 90,
    "dealPrice": "26억",
    "leasePrice": "15억",
    "rentPrice": null,
    "tradeTypes": "매매,전세",
    "dealCount": 1,
    "leaseCount": 1,
    "rentCount": 0,
    "minArea": 188.22,
    "maxArea": 188.22
  },
  {
    "lat": 37.481231,
    "lng": 127.011859,
    "name": "벽산서초블루밍",
    "address": "서울 서초구 방배동",
    "city": "서울",
    "gu": "서초구",
    "dong": "방배동",
    "constructionYear": 2008,
    "totalUnits": 19,
    "dealPrice": "28억",
    "leasePrice": null,
    "rentPrice": "0억",
    "tradeTypes": "매매,월세",
    "dealCount": 2,
    "leaseCount": 0,
    "rentCount": 11,
    "minArea": 354.17,
    "maxArea": 354.17
  },
  {
    "lat": 37.484296,
    "lng": 127.003474,
    "name": "서초트레져",
    "address": "서울 서초구 방배동",
    "city": "서울",
    "gu": "서초구",
    "dong": "방배동",
    "constructionYear": 2005,
    "totalUnits": 14,
    "dealPrice": "23억",
    "leasePrice": null,
    "rentPrice": null,
    "tradeTypes": "매매",
    "dealCount": 9,
    "leaseCount": 0,
    "rentCount": 0,
    "minArea": 236.78,
    "maxArea": 236.78
  },
  {
    "lat": 37.481194,
    "lng": 127.009587,
    "name": "다솔",
    "address": "서울 서초구 방배동",
    "city": "서울",
    "gu": "서초구",
    "dong": "방배동",
    "constructionYear": 2004,
    "totalUnits": 12,
    "dealPrice": "11억",
    "leasePrice": null,
    "rentPrice": null,
    "tradeTypes": "매매",
    "dealCount": 1,
    "leaseCount": 0,
    "rentCount": 0,
    "minArea": 93.73,
    "maxArea": 93.73
  },
  {
    "lat": 37.484816,
    "lng": 126.998831,
    "name": "방배한화",
    "address": "서울 서초구 방배동",
    "city": "서울",
    "gu": "서초구",
    "dong": "방배동",
    "constructionYear": 2001,
    "totalUnits": 89,
    "dealPrice": "20억",
    "leasePrice": null,
    "rentPrice": null,
    "tradeTypes": "매매",
    "dealCount": 15,
    "leaseCount": 0,
    "rentCount": 0,
    "minArea": 111.5,
    "maxArea": 163.67
  },
  {
    "lat": 37.483718,
    "lng": 127.003312,
    "name": "서초상지리츠빌8차",
    "address": "서울 서초구 방배동",
    "city": "서울",
    "gu": "서초구",
    "dong": "방배동",
    "constructionYear": 2006,
    "totalUnits": 18,
    "dealPrice": "25억",
    "leasePrice": "15억",
    "rentPrice": null,
    "tradeTypes": "매매,전세",
    "dealCount": 1,
    "leaseCount": 1,
    "rentCount": 0,
    "minArea": 165.2,
    "maxArea": 165.2
  },
  {
    "lat": 37.47962,
    "lng": 127.00636,
    "name": "서초대우(엘로즈카운티)",
    "address": "서울 서초구 방배동",
    "city": "서울",
    "gu": "서초구",
    "dong": "방배동",
    "constructionYear": 2000,
    "totalUnits": 73,
    "dealPrice": "23억",
    "leasePrice": "13억",
    "rentPrice": null,
    "tradeTypes": "매매,전세",
    "dealCount": 1,
    "leaseCount": 4,
    "rentCount": 0,
    "minArea": 227.7,
    "maxArea": 227.7
  },
  {
    "lat": 37.477397,
    "lng": 126.998467,
    "name": "공작빌라트",
    "address": "서울 서초구 방배동",
    "city": "서울",
    "gu": "서초구",
    "dong": "방배동",
    "constructionYear": 1995,
    "totalUnits": 19,
    "dealPrice": "16억",
    "leasePrice": null,
    "rentPrice": null,
    "tradeTypes": "매매",
    "dealCount": 6,
    "leaseCount": 0,
    "rentCount": 0,
    "minArea": 160.98,
    "maxArea": 160.98
  },
  {
    "lat": 37.483208,
    "lng": 126.995144,
    "name": "방배아크로타워(주상복합)",
    "address": "서울 서초구 방배동",
    "city": "서울",
    "gu": "서초구",
    "dong": "방배동",
    "constructionYear": 2007,
    "totalUnits": 116,
    "dealPrice": "9억",
    "leasePrice": null,
    "rentPrice": null,
    "tradeTypes": "매매",
    "dealCount": 17,
    "leaseCount": 0,
    "rentCount": 0,
    "minArea": 71.87,
    "maxArea": 76.85
  },
  {
    "lat": 37.478612,
    "lng": 127.006829,
    "name": "서초금호어울림",
    "address": "서울 서초구 방배동",
    "city": "서울",
    "gu": "서초구",
    "dong": "방배동",
    "constructionYear": 2001,
    "totalUnits": 84,
    "dealPrice": "21억",
    "leasePrice": "11억",
    "rentPrice": null,
    "tradeTypes": "매매,전세",
    "dealCount": 2,
    "leaseCount": 4,
    "rentCount": 0,
    "minArea": 156.91,
    "maxArea": 156.91
  },
  {
    "lat": 37.480069,
    "lng": 127.002341,
    "name": "방배아트자이",
    "address": "서울 서초구 방배동",
    "city": "서울",
    "gu": "서초구",
    "dong": "방배동",
    "constructionYear": 2018,
    "totalUnits": 353,
    "dealPrice": "29억",
    "leasePrice": "10억",
    "rentPrice": "0억",
    "tradeTypes": "매매,전세,월세",
    "dealCount": 14,
    "leaseCount": 24,
    "rentCount": 7,
    "minArea": 108.8,
    "maxArea": 159.29
  },
  {
    "lat": 37.478763,
    "lng": 127.007697,
    "name": "서초e-편한세상3차",
    "address": "서울 서초구 방배동",
    "city": "서울",
    "gu": "서초구",
    "dong": "방배동",
    "constructionYear": 2005,
    "totalUnits": 77,
    "dealPrice": "24억",
    "leasePrice": null,
    "rentPrice": "0억",
    "tradeTypes": "매매,월세",
    "dealCount": 4,
    "leaseCount": 0,
    "rentCount": 1,
    "minArea": 189.85,
    "maxArea": 189.85
  },
  {
    "lat": 37.478462,
    "lng": 127.004506,
    "name": "월드빌라트(999)",
    "address": "서울 서초구 방배동",
    "city": "서울",
    "gu": "서초구",
    "dong": "방배동",
    "constructionYear": 1994,
    "totalUnits": 19,
    "dealPrice": "26억",
    "leasePrice": null,
    "rentPrice": null,
    "tradeTypes": "매매",
    "dealCount": 1,
    "leaseCount": 0,
    "rentCount": 0,
    "minArea": 277.59,
    "maxArea": 277.59
  },
  {
    "lat": 37.481597,
    "lng": 127.00922,
    "name": "더샵오데움(104동)",
    "address": "서울 서초구 방배동",
    "city": "서울",
    "gu": "서초구",
    "dong": "방배동",
    "constructionYear": 2006,
    "totalUnits": 10,
    "dealPrice": "25억",
    "leasePrice": "12억",
    "rentPrice": null,
    "tradeTypes": "매매,전세",
    "dealCount": 1,
    "leaseCount": 1,
    "rentCount": 0,
    "minArea": 147.76,
    "maxArea": 147.76
  },
  {
    "lat": 37.48141,
    "lng": 126.99558,
    "name": "태림",
    "address": "서울 서초구 방배동",
    "city": "서울",
    "gu": "서초구",
    "dong": "방배동",
    "constructionYear": 2004,
    "totalUnits": 14,
    "dealPrice": "14억",
    "leasePrice": null,
    "rentPrice": null,
    "tradeTypes": "매매",
    "dealCount": 1,
    "leaseCount": 0,
    "rentCount": 0,
    "minArea": 108.14,
    "maxArea": 108.14
  },
  {
    "lat": 37.484202,
    "lng": 127.01372,
    "name": "서초지웰",
    "address": "서울 서초구 방배동",
    "city": "서울",
    "gu": "서초구",
    "dong": "방배동",
    "constructionYear": 2005,
    "totalUnits": 60,
    "dealPrice": "18억",
    "leasePrice": "10억",
    "rentPrice": null,
    "tradeTypes": "매매,전세",
    "dealCount": 6,
    "leaseCount": 6,
    "rentCount": 0,
    "minArea": 112.46,
    "maxArea": 112.46
  },
  {
    "lat": 37.480465,
    "lng": 127.00002,
    "name": "롯데",
    "address": "서울 서초구 방배동",
    "city": "서울",
    "gu": "서초구",
    "dong": "방배동",
    "constructionYear": 1998,
    "totalUnits": 30,
    "dealPrice": "29억",
    "leasePrice": null,
    "rentPrice": null,
    "tradeTypes": "매매",
    "dealCount": 1,
    "leaseCount": 0,
    "rentCount": 0,
    "minArea": 224.79,
    "maxArea": 224.79
  },
  {
    "lat": 37.478203,
    "lng": 127.001068,
    "name": "방배블레스밸리",
    "address": "서울 서초구 방배동",
    "city": "서울",
    "gu": "서초구",
    "dong": "방배동",
    "constructionYear": 2003,
    "totalUnits": 57,
    "dealPrice": "20억",
    "leasePrice": null,
    "rentPrice": null,
    "tradeTypes": "매매",
    "dealCount": 8,
    "leaseCount": 0,
    "rentCount": 0,
    "minArea": 151.23,
    "maxArea": 249.41
  },
  {
    "lat": 37.481378,
    "lng": 127.009969,
    "name": "새티스(1472-21)",
    "address": "서울 서초구 방배동",
    "city": "서울",
    "gu": "서초구",
    "dong": "방배동",
    "constructionYear": 2002,
    "totalUnits": 19,
    "dealPrice": "10억",
    "leasePrice": null,
    "rentPrice": null,
    "tradeTypes": "매매",
    "dealCount": 6,
    "leaseCount": 0,
    "rentCount": 0,
    "minArea": 88.35,
    "maxArea": 98.73
  },
  {
    "lat": 37.478282,
    "lng": 127.007167,
    "name": "더프레임서초(도시형)",
    "address": "서울 서초구 방배동",
    "city": "서울",
    "gu": "서초구",
    "dong": "방배동",
    "constructionYear": 2023,
    "totalUnits": 86,
    "dealPrice": "13억",
    "leasePrice": "7억",
    "rentPrice": "0억",
    "tradeTypes": "매매,전세,월세",
    "dealCount": 6,
    "leaseCount": 8,
    "rentCount": 12,
    "minArea": 65.91,
    "maxArea": 67.02
  },
  {
    "lat": 37.484063,
    "lng": 127.009956,
    "name": "서초한신리빙타워(주상복합)",
    "address": "서울 서초구 방배동",
    "city": "서울",
    "gu": "서초구",
    "dong": "방배동",
    "constructionYear": 1999,
    "totalUnits": 103,
    "dealPrice": "7억",
    "leasePrice": "8억",
    "rentPrice": "0억",
    "tradeTypes": "매매,전세,월세",
    "dealCount": 17,
    "leaseCount": 6,
    "rentCount": 1,
    "minArea": 56.21,
    "maxArea": 166.85
  },
  {
    "lat": 37.47893,
    "lng": 127.00594,
    "name": "서초ESA3차",
    "address": "서울 서초구 방배동",
    "city": "서울",
    "gu": "서초구",
    "dong": "방배동",
    "constructionYear": 2002,
    "totalUnits": 86,
    "dealPrice": "13억",
    "leasePrice": "8억",
    "rentPrice": "0억",
    "tradeTypes": "매매,전세,월세",
    "dealCount": 15,
    "leaseCount": 2,
    "rentCount": 1,
    "minArea": 78.99,
    "maxArea": 78.99
  },
  {
    "lat": 37.475491,
    "lng": 127.001081,
    "name": "방배신동아럭스빌",
    "address": "서울 서초구 방배동",
    "city": "서울",
    "gu": "서초구",
    "dong": "방배동",
    "constructionYear": 2003,
    "totalUnits": 55,
    "dealPrice": "27억",
    "leasePrice": "15억",
    "rentPrice": "0억",
    "tradeTypes": "매매,전세,월세",
    "dealCount": 4,
    "leaseCount": 4,
    "rentCount": 2,
    "minArea": 200.3,
    "maxArea": 215.6
  },
  {
    "lat": 37.484353,
    "lng": 127.009336,
    "name": "서초블레스",
    "address": "서울 서초구 방배동",
    "city": "서울",
    "gu": "서초구",
    "dong": "방배동",
    "constructionYear": 2017,
    "totalUnits": 16,
    "dealPrice": "13억",
    "leasePrice": null,
    "rentPrice": null,
    "tradeTypes": "매매",
    "dealCount": 1,
    "leaseCount": 0,
    "rentCount": 0,
    "minArea": 83.87,
    "maxArea": 83.87
  },
  {
    "lat": 37.476908,
    "lng": 127.002419,
    "name": "임광1,2차",
    "address": "서울 서초구 방배동",
    "city": "서울",
    "gu": "서초구",
    "dong": "방배동",
    "constructionYear": 1985,
    "totalUnits": 418,
    "dealPrice": "25억",
    "leasePrice": "9억",
    "rentPrice": "0억",
    "tradeTypes": "매매,전세,월세",
    "dealCount": 5,
    "leaseCount": 12,
    "rentCount": 4,
    "minArea": 116.28,
    "maxArea": 160.67
  },
  {
    "lat": 37.480606,
    "lng": 127.007186,
    "name": "서초래미안3차",
    "address": "서울 서초구 방배동",
    "city": "서울",
    "gu": "서초구",
    "dong": "방배동",
    "constructionYear": 2005,
    "totalUnits": 31,
    "dealPrice": "26억",
    "leasePrice": null,
    "rentPrice": null,
    "tradeTypes": "매매",
    "dealCount": 1,
    "leaseCount": 0,
    "rentCount": 0,
    "minArea": 212.96,
    "maxArea": 212.96
  },
  {
    "lat": 37.479904,
    "lng": 126.995505,
    "name": "브라운스톤효령",
    "address": "서울 서초구 방배동",
    "city": "서울",
    "gu": "서초구",
    "dong": "방배동",
    "constructionYear": 2005,
    "totalUnits": 35,
    "dealPrice": "23억",
    "leasePrice": null,
    "rentPrice": null,
    "tradeTypes": "매매",
    "dealCount": 4,
    "leaseCount": 0,
    "rentCount": 0,
    "minArea": 148.87,
    "maxArea": 174.9
  },
  {
    "lat": 37.48141,
    "lng": 127.01395,
    "name": "월드메르디앙오페라하우스",
    "address": "서울 서초구 방배동",
    "city": "서울",
    "gu": "서초구",
    "dong": "방배동",
    "constructionYear": 2004,
    "totalUnits": 47,
    "dealPrice": "22억",
    "leasePrice": "14억",
    "rentPrice": "0억",
    "tradeTypes": "매매,전세,월세",
    "dealCount": 16,
    "leaseCount": 16,
    "rentCount": 4,
    "minArea": 173.8,
    "maxArea": 221.69
  },
  {
    "lat": 37.482557,
    "lng": 127.013437,
    "name": "서초자이르네",
    "address": "서울 서초구 방배동",
    "city": "서울",
    "gu": "서초구",
    "dong": "방배동",
    "constructionYear": 2022,
    "totalUnits": 67,
    "dealPrice": "20억",
    "leasePrice": null,
    "rentPrice": null,
    "tradeTypes": "매매",
    "dealCount": 5,
    "leaseCount": 0,
    "rentCount": 0,
    "minArea": 109.12,
    "maxArea": 109.12
  },
  {
    "lat": 37.479732,
    "lng": 127.007187,
    "name": "서초e-편한세상5차",
    "address": "서울 서초구 방배동",
    "city": "서울",
    "gu": "서초구",
    "dong": "방배동",
    "constructionYear": 2005,
    "totalUnits": 161,
    "dealPrice": "26억",
    "leasePrice": "14억",
    "rentPrice": "0억",
    "tradeTypes": "매매,전세,월세",
    "dealCount": 12,
    "leaseCount": 4,
    "rentCount": 1,
    "minArea": 190.3,
    "maxArea": 190.3
  },
  {
    "lat": 37.482915,
    "lng": 127.007982,
    "name": "비버리캐슬",
    "address": "서울 서초구 방배동",
    "city": "서울",
    "gu": "서초구",
    "dong": "방배동",
    "constructionYear": 2020,
    "totalUnits": 42,
    "dealPrice": "12억",
    "leasePrice": null,
    "rentPrice": null,
    "tradeTypes": "매매",
    "dealCount": 9,
    "leaseCount": 0,
    "rentCount": 0,
    "minArea": 81.03,
    "maxArea": 81.03
  },
  {
    "lat": 37.4804,
    "lng": 127.005188,
    "name": "삼환나띠르빌",
    "address": "서울 서초구 방배동",
    "city": "서울",
    "gu": "서초구",
    "dong": "방배동",
    "constructionYear": 2003,
    "totalUnits": 126,
    "dealPrice": "15억",
    "leasePrice": "8억",
    "rentPrice": "0억",
    "tradeTypes": "매매,전세,월세",
    "dealCount": 21,
    "leaseCount": 16,
    "rentCount": 26,
    "minArea": 114.51,
    "maxArea": 189.26
  },
  {
    "lat": 37.481541,
    "lng": 127.013393,
    "name": "서초중흥S-클래스(도시형)",
    "address": "서울 서초구 방배동",
    "city": "서울",
    "gu": "서초구",
    "dong": "방배동",
    "constructionYear": 2013,
    "totalUnits": 91,
    "dealPrice": "2억",
    "leasePrice": null,
    "rentPrice": "0억",
    "tradeTypes": "매매,월세",
    "dealCount": 15,
    "leaseCount": 0,
    "rentCount": 2,
    "minArea": 29.31,
    "maxArea": 41.06
  },
  {
    "lat": 37.482897,
    "lng": 127.003097,
    "name": "서리풀월드메르디앙레브",
    "address": "서울 서초구 방배동",
    "city": "서울",
    "gu": "서초구",
    "dong": "방배동",
    "constructionYear": 2017,
    "totalUnits": 40,
    "dealPrice": "11억",
    "leasePrice": "8억",
    "rentPrice": "0억",
    "tradeTypes": "매매,전세,월세",
    "dealCount": 38,
    "leaseCount": 4,
    "rentCount": 3,
    "minArea": 65.96,
    "maxArea": 66.05
  },
  {
    "lat": 37.476189,
    "lng": 127.001637,
    "name": "현대힐스(주상복합)",
    "address": "서울 서초구 방배동",
    "city": "서울",
    "gu": "서초구",
    "dong": "방배동",
    "constructionYear": 1994,
    "totalUnits": 18,
    "dealPrice": "19억",
    "leasePrice": null,
    "rentPrice": null,
    "tradeTypes": "매매",
    "dealCount": 1,
    "leaseCount": 0,
    "rentCount": 0,
    "minArea": 181.52,
    "maxArea": 181.52
  },
  {
    "lat": 37.480596,
    "lng": 127.002732,
    "name": "방배동양파라곤",
    "address": "서울 서초구 방배동",
    "city": "서울",
    "gu": "서초구",
    "dong": "방배동",
    "constructionYear": 2004,
    "totalUnits": 31,
    "dealPrice": "24억",
    "leasePrice": null,
    "rentPrice": "0억",
    "tradeTypes": "매매,월세",
    "dealCount": 14,
    "leaseCount": 0,
    "rentCount": 13,
    "minArea": 216.31,
    "maxArea": 244.28
  },
  {
    "lat": 37.481449,
    "lng": 127.005604,
    "name": "서초연우",
    "address": "서울 서초구 방배동",
    "city": "서울",
    "gu": "서초구",
    "dong": "방배동",
    "constructionYear": 2015,
    "totalUnits": 19,
    "dealPrice": "11억",
    "leasePrice": null,
    "rentPrice": null,
    "tradeTypes": "매매",
    "dealCount": 3,
    "leaseCount": 0,
    "rentCount": 0,
    "minArea": 102.22,
    "maxArea": 102.22
  },
  {
    "lat": 37.484105,
    "lng": 127.003194,
    "name": "서초상지리츠빌3차",
    "address": "서울 서초구 방배동",
    "city": "서울",
    "gu": "서초구",
    "dong": "방배동",
    "constructionYear": 2004,
    "totalUnits": 18,
    "dealPrice": "36억",
    "leasePrice": null,
    "rentPrice": "0억",
    "tradeTypes": "매매,월세",
    "dealCount": 2,
    "leaseCount": 0,
    "rentCount": 1,
    "minArea": 207.62,
    "maxArea": 207.62
  },
  {
    "lat": 37.478909,
    "lng": 127.000389,
    "name": "파세지아타",
    "address": "서울 서초구 방배동",
    "city": "서울",
    "gu": "서초구",
    "dong": "방배동",
    "constructionYear": 2023,
    "totalUnits": 27,
    "dealPrice": "28억",
    "leasePrice": "18억",
    "rentPrice": null,
    "tradeTypes": "매매,전세",
    "dealCount": 1,
    "leaseCount": 4,
    "rentCount": 0,
    "minArea": 178.39,
    "maxArea": 178.39
  },
  {
    "lat": 37.482863,
    "lng": 127.002283,
    "name": "서초상지리츠빌1차",
    "address": "서울 서초구 방배동",
    "city": "서울",
    "gu": "서초구",
    "dong": "방배동",
    "constructionYear": 2002,
    "totalUnits": 19,
    "dealPrice": "23억",
    "leasePrice": null,
    "rentPrice": null,
    "tradeTypes": "매매",
    "dealCount": 11,
    "leaseCount": 0,
    "rentCount": 0,
    "minArea": 161.9,
    "maxArea": 180.63
  },
  {
    "lat": 37.481921,
    "lng": 127.009238,
    "name": "더샵오데움(103동)",
    "address": "서울 서초구 방배동",
    "city": "서울",
    "gu": "서초구",
    "dong": "방배동",
    "constructionYear": 2005,
    "totalUnits": 34,
    "dealPrice": "32억",
    "leasePrice": null,
    "rentPrice": null,
    "tradeTypes": "매매",
    "dealCount": 2,
    "leaseCount": 0,
    "rentCount": 0,
    "minArea": 200.44,
    "maxArea": 200.44
  },
  {
    "lat": 37.483317,
    "lng": 127.002763,
    "name": "서초상지리츠빌5차",
    "address": "서울 서초구 방배동",
    "city": "서울",
    "gu": "서초구",
    "dong": "방배동",
    "constructionYear": 2004,
    "totalUnits": 12,
    "dealPrice": "31억",
    "leasePrice": null,
    "rentPrice": null,
    "tradeTypes": "매매",
    "dealCount": 4,
    "leaseCount": 0,
    "rentCount": 0,
    "minArea": 191.3,
    "maxArea": 231.86
  },
  {
    "lat": 37.482994,
    "lng": 127.002616,
    "name": "서초상지리츠빌4차",
    "address": "서울 서초구 방배동",
    "city": "서울",
    "gu": "서초구",
    "dong": "방배동",
    "constructionYear": 2004,
    "totalUnits": 17,
    "dealPrice": "25억",
    "leasePrice": "18억",
    "rentPrice": null,
    "tradeTypes": "매매,전세",
    "dealCount": 8,
    "leaseCount": 10,
    "rentCount": 0,
    "minArea": 152.37,
    "maxArea": 180.73
  },
  {
    "lat": 37.483915,
    "lng": 127.008499,
    "name": "서초동아",
    "address": "서울 서초구 방배동",
    "city": "서울",
    "gu": "서초구",
    "dong": "방배동",
    "constructionYear": 2006,
    "totalUnits": 12,
    "dealPrice": "12억",
    "leasePrice": null,
    "rentPrice": null,
    "tradeTypes": "매매",
    "dealCount": 9,
    "leaseCount": 0,
    "rentCount": 0,
    "minArea": 118.82,
    "maxArea": 146.1
  },
  {
    "lat": 37.483381,
    "lng": 127.014299,
    "name": "경남아너스빌(1455-9)",
    "address": "서울 서초구 방배동",
    "city": "서울",
    "gu": "서초구",
    "dong": "방배동",
    "constructionYear": 2005,
    "totalUnits": 55,
    "dealPrice": "23억",
    "leasePrice": "17억",
    "rentPrice": "0억",
    "tradeTypes": "매매,전세,월세",
    "dealCount": 14,
    "leaseCount": 2,
    "rentCount": 15,
    "minArea": 159.91,
    "maxArea": 160.21
  },
  {
    "lat": 37.481062,
    "lng": 127.01107,
    "name": "서초래미안4차",
    "address": "서울 서초구 방배동",
    "city": "서울",
    "gu": "서초구",
    "dong": "방배동",
    "constructionYear": 2005,
    "totalUnits": 56,
    "dealPrice": "23억",
    "leasePrice": "12억",
    "rentPrice": "0억",
    "tradeTypes": "매매,전세,월세",
    "dealCount": 11,
    "leaseCount": 8,
    "rentCount": 9,
    "minArea": 144.94,
    "maxArea": 194.24
  },
  {
    "lat": 37.481213,
    "lng": 127.005899,
    "name": "에비앙하우스(도시형)",
    "address": "서울 서초구 방배동",
    "city": "서울",
    "gu": "서초구",
    "dong": "방배동",
    "constructionYear": 2017,
    "totalUnits": 16,
    "dealPrice": "4억",
    "leasePrice": null,
    "rentPrice": null,
    "tradeTypes": "매매",
    "dealCount": 4,
    "leaseCount": 0,
    "rentCount": 0,
    "minArea": 32.05,
    "maxArea": 32.05
  },
  {
    "lat": 37.483341,
    "lng": 127.002367,
    "name": "서초상지리츠빌7차",
    "address": "서울 서초구 방배동",
    "city": "서울",
    "gu": "서초구",
    "dong": "방배동",
    "constructionYear": 2005,
    "totalUnits": 14,
    "dealPrice": "40억",
    "leasePrice": "25억",
    "rentPrice": "0억",
    "tradeTypes": "매매,전세,월세",
    "dealCount": 3,
    "leaseCount": 4,
    "rentCount": 4,
    "minArea": 237.3,
    "maxArea": 237.44
  },
  {
    "lat": 37.480315,
    "lng": 127.011136,
    "name": "서초코아",
    "address": "서울 서초구 방배동",
    "city": "서울",
    "gu": "서초구",
    "dong": "방배동",
    "constructionYear": 2003,
    "totalUnits": 15,
    "dealPrice": "11억",
    "leasePrice": null,
    "rentPrice": null,
    "tradeTypes": "매매",
    "dealCount": 16,
    "leaseCount": 0,
    "rentCount": 0,
    "minArea": 79.87,
    "maxArea": 109.88
  },
  {
    "lat": 37.482482,
    "lng": 127.013844,
    "name": "서초한신",
    "address": "서울 서초구 방배동",
    "city": "서울",
    "gu": "서초구",
    "dong": "방배동",
    "constructionYear": 2001,
    "totalUnits": 194,
    "dealPrice": "20억",
    "leasePrice": "10억",
    "rentPrice": "0억",
    "tradeTypes": "매매,전세,월세",
    "dealCount": 15,
    "leaseCount": 11,
    "rentCount": 10,
    "minArea": 113.63,
    "maxArea": 147.27
  },
  {
    "lat": 37.4814,
    "lng": 127.008307,
    "name": "아이파크빌",
    "address": "서울 서초구 방배동",
    "city": "서울",
    "gu": "서초구",
    "dong": "방배동",
    "constructionYear": 2001,
    "totalUnits": 66,
    "dealPrice": "22억",
    "leasePrice": "18억",
    "rentPrice": null,
    "tradeTypes": "매매,전세",
    "dealCount": 13,
    "leaseCount": 16,
    "rentCount": 0,
    "minArea": 218.34,
    "maxArea": 272
  },
  {
    "lat": 37.477643,
    "lng": 126.998746,
    "name": "삼호한숲",
    "address": "서울 서초구 방배동",
    "city": "서울",
    "gu": "서초구",
    "dong": "방배동",
    "constructionYear": 1998,
    "totalUnits": 116,
    "dealPrice": "14억",
    "leasePrice": null,
    "rentPrice": null,
    "tradeTypes": "매매",
    "dealCount": 5,
    "leaseCount": 0,
    "rentCount": 0,
    "minArea": 80.16,
    "maxArea": 106.34
  },
  {
    "lat": 37.484312,
    "lng": 126.998447,
    "name": "방배서리풀e-편한세상",
    "address": "서울 서초구 방배동",
    "city": "서울",
    "gu": "서초구",
    "dong": "방배동",
    "constructionYear": 2010,
    "totalUnits": 496,
    "dealPrice": "30억",
    "leasePrice": "9억",
    "rentPrice": "0억",
    "tradeTypes": "매매,전세,월세",
    "dealCount": 21,
    "leaseCount": 24,
    "rentCount": 2,
    "minArea": 110.78,
    "maxArea": 210.7
  },
  {
    "lat": 37.475575,
    "lng": 126.999769,
    "name": "방배그랑자이",
    "address": "서울 서초구 방배동",
    "city": "서울",
    "gu": "서초구",
    "dong": "방배동",
    "constructionYear": 2021,
    "totalUnits": 758,
    "dealPrice": "30억",
    "leasePrice": "13억",
    "rentPrice": "0억",
    "tradeTypes": "매매,전세,월세",
    "dealCount": 74,
    "leaseCount": 39,
    "rentCount": 43,
    "minArea": 110.8,
    "maxArea": 170.8
  },
  {
    "lat": 37.478089,
    "lng": 127.003568,
    "name": "방배어울림",
    "address": "서울 서초구 방배동",
    "city": "서울",
    "gu": "서초구",
    "dong": "방배동",
    "constructionYear": 2008,
    "totalUnits": 64,
    "dealPrice": null,
    "leasePrice": "14억",
    "rentPrice": null,
    "tradeTypes": "전세",
    "dealCount": 0,
    "leaseCount": 19,
    "rentCount": 0,
    "minArea": 149.95,
    "maxArea": 149.95
  },
  {
    "lat": 37.48008,
    "lng": 127.000319,
    "name": "신원아침도시",
    "address": "서울 서초구 방배동",
    "city": "서울",
    "gu": "서초구",
    "dong": "방배동",
    "constructionYear": 2004,
    "totalUnits": 19,
    "dealPrice": null,
    "leasePrice": "11억",
    "rentPrice": null,
    "tradeTypes": "전세",
    "dealCount": 0,
    "leaseCount": 1,
    "rentCount": 0,
    "minArea": 162.39,
    "maxArea": 162.39
  },
  {
    "lat": 37.480681,
    "lng": 127.009639,
    "name": "서초네스피아",
    "address": "서울 서초구 방배동",
    "city": "서울",
    "gu": "서초구",
    "dong": "방배동",
    "constructionYear": 2005,
    "totalUnits": 24,
    "dealPrice": null,
    "leasePrice": "7억",
    "rentPrice": null,
    "tradeTypes": "전세",
    "dealCount": 0,
    "leaseCount": 1,
    "rentCount": 0,
    "minArea": 108.95,
    "maxArea": 108.95
  },
  {
    "lat": 37.48383,
    "lng": 127.014263,
    "name": "경남아너스빌(1456-2)",
    "address": "서울 서초구 방배동",
    "city": "서울",
    "gu": "서초구",
    "dong": "방배동",
    "constructionYear": 2006,
    "totalUnits": 86,
    "dealPrice": null,
    "leasePrice": "10억",
    "rentPrice": "0억",
    "tradeTypes": "전세,월세",
    "dealCount": 0,
    "leaseCount": 7,
    "rentCount": 1,
    "minArea": 105.79,
    "maxArea": 105.79
  },
  {
    "lat": 37.484775,
    "lng": 127.003603,
    "name": "서초로얄스위트",
    "address": "서울 서초구 방배동",
    "city": "서울",
    "gu": "서초구",
    "dong": "방배동",
    "constructionYear": 2005,
    "totalUnits": 17,
    "dealPrice": null,
    "leasePrice": "15억",
    "rentPrice": null,
    "tradeTypes": "전세",
    "dealCount": 0,
    "leaseCount": 6,
    "rentCount": 0,
    "minArea": 167.41,
    "maxArea": 167.41
  },
  {
    "lat": 37.476288,
    "lng": 127.002687,
    "name": "임광3차",
    "address": "서울 서초구 방배동",
    "city": "서울",
    "gu": "서초구",
    "dong": "방배동",
    "constructionYear": 1988,
    "totalUnits": 316,
    "dealPrice": null,
    "leasePrice": "4억",
    "rentPrice": "0억",
    "tradeTypes": "전세,월세",
    "dealCount": 0,
    "leaseCount": 8,
    "rentCount": 5,
    "minArea": 58.25,
    "maxArea": 107.1
  },
  {
    "lat": 37.49273,
    "lng": 127.01833,
    "name": "서초롯데캐슬84",
    "address": "서울 서초구 서초동",
    "city": "서울",
    "gu": "서초구",
    "dong": "서초동",
    "constructionYear": 2001,
    "totalUnits": 84,
    "dealPrice": "35억",
    "leasePrice": null,
    "rentPrice": null,
    "tradeTypes": "매매",
    "dealCount": 25,
    "leaseCount": 0,
    "rentCount": 0,
    "minArea": 249.8,
    "maxArea": 249.8
  },
  {
    "lat": 37.48587,
    "lng": 127.02574,
    "name": "서초벽산블루밍",
    "address": "서울 서초구 서초동",
    "city": "서울",
    "gu": "서초구",
    "dong": "서초동",
    "constructionYear": 2006,
    "totalUnits": 60,
    "dealPrice": "19억",
    "leasePrice": "9억",
    "rentPrice": null,
    "tradeTypes": "매매,전세",
    "dealCount": 6,
    "leaseCount": 5,
    "rentCount": 0,
    "minArea": 105.25,
    "maxArea": 105.25
  },
  {
    "lat": 37.485768,
    "lng": 127.032051,
    "name": "한라비발디스튜디오193(도시형)",
    "address": "서울 서초구 서초동",
    "city": "서울",
    "gu": "서초구",
    "dong": "서초동",
    "constructionYear": 2013,
    "totalUnits": 149,
    "dealPrice": "2억",
    "leasePrice": null,
    "rentPrice": null,
    "tradeTypes": "매매",
    "dealCount": 19,
    "leaseCount": 0,
    "rentCount": 0,
    "minArea": 32.02,
    "maxArea": 57.7
  },
  {
    "lat": 37.48748,
    "lng": 127.01673,
    "name": "서초롯데캐슬리버티",
    "address": "서울 서초구 서초동",
    "city": "서울",
    "gu": "서초구",
    "dong": "서초동",
    "constructionYear": 2005,
    "totalUnits": 132,
    "dealPrice": "20억",
    "leasePrice": "10억",
    "rentPrice": "0억",
    "tradeTypes": "매매,전세,월세",
    "dealCount": 13,
    "leaseCount": 17,
    "rentCount": 8,
    "minArea": 106.8,
    "maxArea": 151.21
  },
  {
    "lat": 37.485942,
    "lng": 127.023523,
    "name": "현대",
    "address": "서울 서초구 서초동",
    "city": "서울",
    "gu": "서초구",
    "dong": "서초동",
    "constructionYear": 1989,
    "totalUnits": 413,
    "dealPrice": "24억",
    "leasePrice": "7억",
    "rentPrice": "0억",
    "tradeTypes": "매매,전세,월세",
    "dealCount": 5,
    "leaseCount": 7,
    "rentCount": 4,
    "minArea": 103.45,
    "maxArea": 109.44
  },
  {
    "lat": 37.489829,
    "lng": 127.020513,
    "name": "끄레메빌",
    "address": "서울 서초구 서초동",
    "city": "서울",
    "gu": "서초구",
    "dong": "서초동",
    "constructionYear": 1999,
    "totalUnits": 14,
    "dealPrice": "25억",
    "leasePrice": "15억",
    "rentPrice": "0억",
    "tradeTypes": "매매,전세,월세",
    "dealCount": 24,
    "leaseCount": 14,
    "rentCount": 8,
    "minArea": 286,
    "maxArea": 286
  },
  {
    "lat": 37.485301,
    "lng": 127.034443,
    "name": "양재SK허브프리모(주상복합)",
    "address": "서울 서초구 서초동",
    "city": "서울",
    "gu": "서초구",
    "dong": "서초동",
    "constructionYear": 2006,
    "totalUnits": 176,
    "dealPrice": "4억",
    "leasePrice": "7억",
    "rentPrice": "0억",
    "tradeTypes": "매매,전세,월세",
    "dealCount": 7,
    "leaseCount": 5,
    "rentCount": 4,
    "minArea": 47.19,
    "maxArea": 94.33
  },
  {
    "lat": 37.493011,
    "lng": 127.020794,
    "name": "아남",
    "address": "서울 서초구 서초동",
    "city": "서울",
    "gu": "서초구",
    "dong": "서초동",
    "constructionYear": 1989,
    "totalUnits": 166,
    "dealPrice": "19억",
    "leasePrice": null,
    "rentPrice": null,
    "tradeTypes": "매매",
    "dealCount": 3,
    "leaseCount": 0,
    "rentCount": 0,
    "minArea": 92.08,
    "maxArea": 103.18
  },
  {
    "lat": 37.489067,
    "lng": 127.03436,
    "name": "대명비발디",
    "address": "서울 서초구 서초동",
    "city": "서울",
    "gu": "서초구",
    "dong": "서초동",
    "constructionYear": 2003,
    "totalUnits": 18,
    "dealPrice": "12억",
    "leasePrice": null,
    "rentPrice": null,
    "tradeTypes": "매매",
    "dealCount": 2,
    "leaseCount": 0,
    "rentCount": 0,
    "minArea": 100.07,
    "maxArea": 100.07
  },
  {
    "lat": 37.487624,
    "lng": 127.020991,
    "name": "칼리아빌",
    "address": "서울 서초구 서초동",
    "city": "서울",
    "gu": "서초구",
    "dong": "서초동",
    "constructionYear": 2007,
    "totalUnits": 10,
    "dealPrice": "13억",
    "leasePrice": null,
    "rentPrice": null,
    "tradeTypes": "매매",
    "dealCount": 33,
    "leaseCount": 0,
    "rentCount": 0,
    "minArea": 116.84,
    "maxArea": 126.11
  },
  {
    "lat": 37.485451,
    "lng": 127.023009,
    "name": "서초아이파크",
    "address": "서울 서초구 서초동",
    "city": "서울",
    "gu": "서초구",
    "dong": "서초동",
    "constructionYear": 2003,
    "totalUnits": 115,
    "dealPrice": "32억",
    "leasePrice": "17억",
    "rentPrice": null,
    "tradeTypes": "매매,전세",
    "dealCount": 8,
    "leaseCount": 26,
    "rentCount": 0,
    "minArea": 192.85,
    "maxArea": 204.47
  },
  {
    "lat": 37.489678,
    "lng": 127.020899,
    "name": "서초프라임헤센",
    "address": "서울 서초구 서초동",
    "city": "서울",
    "gu": "서초구",
    "dong": "서초동",
    "constructionYear": 2021,
    "totalUnits": 55,
    "dealPrice": "16억",
    "leasePrice": "9억",
    "rentPrice": null,
    "tradeTypes": "매매,전세",
    "dealCount": 3,
    "leaseCount": 2,
    "rentCount": 0,
    "minArea": 91.03,
    "maxArea": 91.03
  },
  {
    "lat": 37.486948,
    "lng": 127.029751,
    "name": "서초현대리츠빌",
    "address": "서울 서초구 서초동",
    "city": "서울",
    "gu": "서초구",
    "dong": "서초동",
    "constructionYear": 2002,
    "totalUnits": 44,
    "dealPrice": "23억",
    "leasePrice": null,
    "rentPrice": null,
    "tradeTypes": "매매",
    "dealCount": 5,
    "leaseCount": 0,
    "rentCount": 0,
    "minArea": 201.76,
    "maxArea": 201.76
  },
  {
    "lat": 37.487489,
    "lng": 127.027551,
    "name": "서초프레스티지",
    "address": "서울 서초구 서초동",
    "city": "서울",
    "gu": "서초구",
    "dong": "서초동",
    "constructionYear": 2017,
    "totalUnits": 28,
    "dealPrice": "10억",
    "leasePrice": "8억",
    "rentPrice": null,
    "tradeTypes": "매매,전세",
    "dealCount": 7,
    "leaseCount": 1,
    "rentCount": 0,
    "minArea": 62.94,
    "maxArea": 92.17
  },
  {
    "lat": 37.487825,
    "lng": 127.033725,
    "name": "클래스원",
    "address": "서울 서초구 서초동",
    "city": "서울",
    "gu": "서초구",
    "dong": "서초동",
    "constructionYear": 2022,
    "totalUnits": 10,
    "dealPrice": "10억",
    "leasePrice": "8억",
    "rentPrice": null,
    "tradeTypes": "매매,전세",
    "dealCount": 8,
    "leaseCount": 4,
    "rentCount": 0,
    "minArea": 58.74,
    "maxArea": 118.48
  },
  {
    "lat": 37.492196,
    "lng": 127.034603,
    "name": "금호어울림",
    "address": "서울 서초구 서초동",
    "city": "서울",
    "gu": "서초구",
    "dong": "서초동",
    "constructionYear": 2003,
    "totalUnits": 183,
    "dealPrice": "19억",
    "leasePrice": "9억",
    "rentPrice": "0억",
    "tradeTypes": "매매,전세,월세",
    "dealCount": 9,
    "leaseCount": 2,
    "rentCount": 3,
    "minArea": 103.7,
    "maxArea": 155.39
  },
  {
    "lat": 37.492012,
    "lng": 127.034198,
    "name": "역삼카이스",
    "address": "서울 서초구 서초동",
    "city": "서울",
    "gu": "서초구",
    "dong": "서초동",
    "constructionYear": 2002,
    "totalUnits": 19,
    "dealPrice": "18억",
    "leasePrice": null,
    "rentPrice": null,
    "tradeTypes": "매매",
    "dealCount": 5,
    "leaseCount": 0,
    "rentCount": 0,
    "minArea": 131.51,
    "maxArea": 131.51
  },
  {
    "lat": 37.4916,
    "lng": 127.030121,
    "name": "서초대우디오빌프라임(주상복합)",
    "address": "서울 서초구 서초동",
    "city": "서울",
    "gu": "서초구",
    "dong": "서초동",
    "constructionYear": 2005,
    "totalUnits": 112,
    "dealPrice": "8억",
    "leasePrice": "8억",
    "rentPrice": "0억",
    "tradeTypes": "매매,전세,월세",
    "dealCount": 28,
    "leaseCount": 13,
    "rentCount": 9,
    "minArea": 56.35,
    "maxArea": 107.6
  },
  {
    "lat": 37.485078,
    "lng": 127.019384,
    "name": "초원현대",
    "address": "서울 서초구 서초동",
    "city": "서울",
    "gu": "서초구",
    "dong": "서초동",
    "constructionYear": 1998,
    "totalUnits": 48,
    "dealPrice": "13억",
    "leasePrice": null,
    "rentPrice": null,
    "tradeTypes": "매매",
    "dealCount": 6,
    "leaseCount": 0,
    "rentCount": 0,
    "minArea": 87.93,
    "maxArea": 87.93
  },
  {
    "lat": 37.494056,
    "lng": 127.020816,
    "name": "대성유니드",
    "address": "서울 서초구 서초동",
    "city": "서울",
    "gu": "서초구",
    "dong": "서초동",
    "constructionYear": 2004,
    "totalUnits": 83,
    "dealPrice": "20억",
    "leasePrice": "10억",
    "rentPrice": null,
    "tradeTypes": "매매,전세",
    "dealCount": 18,
    "leaseCount": 8,
    "rentCount": 0,
    "minArea": 119.25,
    "maxArea": 151.01
  },
  {
    "lat": 37.490982,
    "lng": 127.029439,
    "name": "현대ESA(주상복합)",
    "address": "서울 서초구 서초동",
    "city": "서울",
    "gu": "서초구",
    "dong": "서초동",
    "constructionYear": 2002,
    "totalUnits": 122,
    "dealPrice": "16억",
    "leasePrice": "9억",
    "rentPrice": "0억",
    "tradeTypes": "매매,전세,월세",
    "dealCount": 37,
    "leaseCount": 11,
    "rentCount": 17,
    "minArea": 131.58,
    "maxArea": 215.62
  },
  {
    "lat": 37.491021,
    "lng": 127.019951,
    "name": "서초현대",
    "address": "서울 서초구 서초동",
    "city": "서울",
    "gu": "서초구",
    "dong": "서초동",
    "constructionYear": 1999,
    "totalUnits": 299,
    "dealPrice": "14억",
    "leasePrice": "7억",
    "rentPrice": null,
    "tradeTypes": "매매,전세",
    "dealCount": 13,
    "leaseCount": 22,
    "rentCount": 0,
    "minArea": 75.02,
    "maxArea": 144.29
  },
  {
    "lat": 37.49019,
    "lng": 127.022959,
    "name": "샹보르",
    "address": "서울 서초구 서초동",
    "city": "서울",
    "gu": "서초구",
    "dong": "서초동",
    "constructionYear": 2002,
    "totalUnits": 19,
    "dealPrice": "24억",
    "leasePrice": null,
    "rentPrice": "0억",
    "tradeTypes": "매매,월세",
    "dealCount": 4,
    "leaseCount": 0,
    "rentCount": 3,
    "minArea": 208.76,
    "maxArea": 208.76
  },
  {
    "lat": 37.492859,
    "lng": 127.027121,
    "name": "래미안서초에스티지S",
    "address": "서울 서초구 서초동",
    "city": "서울",
    "gu": "서초구",
    "dong": "서초동",
    "constructionYear": 2018,
    "totalUnits": 593,
    "dealPrice": "35억",
    "leasePrice": "14억",
    "rentPrice": "0억",
    "tradeTypes": "매매,전세,월세",
    "dealCount": 100,
    "leaseCount": 44,
    "rentCount": 49,
    "minArea": 111.13,
    "maxArea": 171.74
  },
  {
    "lat": 37.494502,
    "lng": 127.026894,
    "name": "우성5차",
    "address": "서울 서초구 서초동",
    "city": "서울",
    "gu": "서초구",
    "dong": "서초동",
    "constructionYear": 1998,
    "totalUnits": 408,
    "dealPrice": "22억",
    "leasePrice": "7억",
    "rentPrice": "0억",
    "tradeTypes": "매매,전세,월세",
    "dealCount": 9,
    "leaseCount": 30,
    "rentCount": 64,
    "minArea": 79.88,
    "maxArea": 167.83
  },
  {
    "lat": 37.49396,
    "lng": 127.027795,
    "name": "삼성쉐르빌II(주상복합)",
    "address": "서울 서초구 서초동",
    "city": "서울",
    "gu": "서초구",
    "dong": "서초동",
    "constructionYear": 2002,
    "totalUnits": 365,
    "dealPrice": "3억",
    "leasePrice": "3억",
    "rentPrice": "0억",
    "tradeTypes": "매매,전세,월세",
    "dealCount": 59,
    "leaseCount": 14,
    "rentCount": 7,
    "minArea": 50.59,
    "maxArea": 101.38
  },
  {
    "lat": 37.490778,
    "lng": 127.028132,
    "name": "래미안리더스원",
    "address": "서울 서초구 서초동",
    "city": "서울",
    "gu": "서초구",
    "dong": "서초동",
    "constructionYear": 2020,
    "totalUnits": 1317,
    "dealPrice": "32억",
    "leasePrice": "13억",
    "rentPrice": "0억",
    "tradeTypes": "매매,전세,월세",
    "dealCount": 73,
    "leaseCount": 106,
    "rentCount": 70,
    "minArea": 84.03,
    "maxArea": 219.59
  },
  {
    "lat": 37.494845,
    "lng": 127.02585,
    "name": "삼성서초가든스위트",
    "address": "서울 서초구 서초동",
    "city": "서울",
    "gu": "서초구",
    "dong": "서초동",
    "constructionYear": 2000,
    "totalUnits": 141,
    "dealPrice": "38억",
    "leasePrice": "18억",
    "rentPrice": "0억",
    "tradeTypes": "매매,전세,월세",
    "dealCount": 45,
    "leaseCount": 31,
    "rentCount": 1,
    "minArea": 255.74,
    "maxArea": 355.07
  },
  {
    "lat": 37.48579,
    "lng": 127.015386,
    "name": "서초레몬(주상복합)",
    "address": "서울 서초구 서초동",
    "city": "서울",
    "gu": "서초구",
    "dong": "서초동",
    "constructionYear": 2005,
    "totalUnits": 24,
    "dealPrice": "3억",
    "leasePrice": null,
    "rentPrice": "0억",
    "tradeTypes": "매매,월세",
    "dealCount": 7,
    "leaseCount": 0,
    "rentCount": 2,
    "minArea": 38.26,
    "maxArea": 69.24
  },
  {
    "lat": 37.492018,
    "lng": 127.023953,
    "name": "신동아1차",
    "address": "서울 서초구 서초동",
    "city": "서울",
    "gu": "서초구",
    "dong": "서초동",
    "constructionYear": 1978,
    "totalUnits": 893,
    "dealPrice": "37억",
    "leasePrice": null,
    "rentPrice": null,
    "tradeTypes": "매매",
    "dealCount": 2,
    "leaseCount": 0,
    "rentCount": 0,
    "minArea": 108.59,
    "maxArea": 108.59
  },
  {
    "lat": 37.487889,
    "lng": 127.01608,
    "name": "TS프리우스",
    "address": "서울 서초구 서초동",
    "city": "서울",
    "gu": "서초구",
    "dong": "서초동",
    "constructionYear": 2004,
    "totalUnits": 18,
    "dealPrice": "15억",
    "leasePrice": null,
    "rentPrice": null,
    "tradeTypes": "매매",
    "dealCount": 5,
    "leaseCount": 0,
    "rentCount": 0,
    "minArea": 120.58,
    "maxArea": 146.5
  },
  {
    "lat": 37.488741,
    "lng": 127.023136,
    "name": "경남아너스빌(1608-28)",
    "address": "서울 서초구 서초동",
    "city": "서울",
    "gu": "서초구",
    "dong": "서초동",
    "constructionYear": 2006,
    "totalUnits": 32,
    "dealPrice": "23억",
    "leasePrice": "11억",
    "rentPrice": null,
    "tradeTypes": "매매,전세",
    "dealCount": 5,
    "leaseCount": 10,
    "rentCount": 0,
    "minArea": 132.54,
    "maxArea": 141.7
  },
  {
    "lat": 37.491547,
    "lng": 127.017117,
    "name": "현대빌리지",
    "address": "서울 서초구 서초동",
    "city": "서울",
    "gu": "서초구",
    "dong": "서초동",
    "constructionYear": 2005,
    "totalUnits": 13,
    "dealPrice": "19억",
    "leasePrice": null,
    "rentPrice": null,
    "tradeTypes": "매매",
    "dealCount": 8,
    "leaseCount": 0,
    "rentCount": 0,
    "minArea": 153.08,
    "maxArea": 156.66
  },
  {
    "lat": 37.493179,
    "lng": 127.019471,
    "name": "서초삼성래미안",
    "address": "서울 서초구 서초동",
    "city": "서울",
    "gu": "서초구",
    "dong": "서초동",
    "constructionYear": 2001,
    "totalUnits": 299,
    "dealPrice": "25억",
    "leasePrice": "10억",
    "rentPrice": null,
    "tradeTypes": "매매,전세",
    "dealCount": 20,
    "leaseCount": 1,
    "rentCount": 0,
    "minArea": 108.16,
    "maxArea": 191.27
  },
  {
    "lat": 37.490061,
    "lng": 127.034395,
    "name": "도곡루아르(도시형)",
    "address": "서울 서초구 서초동",
    "city": "서울",
    "gu": "서초구",
    "dong": "서초동",
    "constructionYear": 2022,
    "totalUnits": 29,
    "dealPrice": "10억",
    "leasePrice": "7억",
    "rentPrice": "0억",
    "tradeTypes": "매매,전세,월세",
    "dealCount": 20,
    "leaseCount": 10,
    "rentCount": 3,
    "minArea": 65.08,
    "maxArea": 67.46
  },
  {
    "lat": 37.494894,
    "lng": 127.027387,
    "name": "서초파라곤(주상복합)",
    "address": "서울 서초구 서초동",
    "city": "서울",
    "gu": "서초구",
    "dong": "서초동",
    "constructionYear": 2005,
    "totalUnits": 60,
    "dealPrice": "12억",
    "leasePrice": "11억",
    "rentPrice": null,
    "tradeTypes": "매매,전세",
    "dealCount": 11,
    "leaseCount": 10,
    "rentCount": 0,
    "minArea": 86.04,
    "maxArea": 135.88
  },
  {
    "lat": 37.489173,
    "lng": 127.034133,
    "name": "현대아이리스",
    "address": "서울 서초구 서초동",
    "city": "서울",
    "gu": "서초구",
    "dong": "서초동",
    "constructionYear": 2004,
    "totalUnits": 17,
    "dealPrice": "15억",
    "leasePrice": "11억",
    "rentPrice": null,
    "tradeTypes": "매매,전세",
    "dealCount": 14,
    "leaseCount": 4,
    "rentCount": 0,
    "minArea": 131.04,
    "maxArea": 157.81
  },
  {
    "lat": 37.48967,
    "lng": 127.02293,
    "name": "두진한아름",
    "address": "서울 서초구 서초동",
    "city": "서울",
    "gu": "서초구",
    "dong": "서초동",
    "constructionYear": 1995,
    "totalUnits": 42,
    "dealPrice": "13억",
    "leasePrice": "5억",
    "rentPrice": null,
    "tradeTypes": "매매,전세",
    "dealCount": 10,
    "leaseCount": 5,
    "rentCount": 0,
    "minArea": 80.3,
    "maxArea": 114.12
  },
  {
    "lat": 37.494755,
    "lng": 127.018285,
    "name": "브라운스톤서초(주상복합)",
    "address": "서울 서초구 서초동",
    "city": "서울",
    "gu": "서초구",
    "dong": "서초동",
    "constructionYear": 2006,
    "totalUnits": 42,
    "dealPrice": "15억",
    "leasePrice": "9억",
    "rentPrice": null,
    "tradeTypes": "매매,전세",
    "dealCount": 17,
    "leaseCount": 3,
    "rentCount": 0,
    "minArea": 107.86,
    "maxArea": 113.43
  },
  {
    "lat": 37.486133,
    "lng": 127.032566,
    "name": "서초두산위브(주상복합)",
    "address": "서울 서초구 서초동",
    "city": "서울",
    "gu": "서초구",
    "dong": "서초동",
    "constructionYear": 2005,
    "totalUnits": 78,
    "dealPrice": "11억",
    "leasePrice": null,
    "rentPrice": "0억",
    "tradeTypes": "매매,월세",
    "dealCount": 14,
    "leaseCount": 0,
    "rentCount": 2,
    "minArea": 69.52,
    "maxArea": 103.45
  },
  {
    "lat": 37.488021,
    "lng": 127.022207,
    "name": "상지리츠빌2차",
    "address": "서울 서초구 서초동",
    "city": "서울",
    "gu": "서초구",
    "dong": "서초동",
    "constructionYear": 2004,
    "totalUnits": 36,
    "dealPrice": "23억",
    "leasePrice": "14억",
    "rentPrice": "0억",
    "tradeTypes": "매매,전세,월세",
    "dealCount": 18,
    "leaseCount": 16,
    "rentCount": 7,
    "minArea": 183.09,
    "maxArea": 237.74
  },
  {
    "lat": 37.487828,
    "lng": 127.022865,
    "name": "서초극동스타클래스 I",
    "address": "서울 서초구 서초동",
    "city": "서울",
    "gu": "서초구",
    "dong": "서초동",
    "constructionYear": 2003,
    "totalUnits": 90,
    "dealPrice": "17억",
    "leasePrice": null,
    "rentPrice": null,
    "tradeTypes": "매매",
    "dealCount": 27,
    "leaseCount": 0,
    "rentCount": 0,
    "minArea": 102.8,
    "maxArea": 150.31
  },
  {
    "lat": 37.49169,
    "lng": 127.028989,
    "name": "강남역푸르지오시티(도시형)",
    "address": "서울 서초구 서초동",
    "city": "서울",
    "gu": "서초구",
    "dong": "서초동",
    "constructionYear": 2014,
    "totalUnits": 137,
    "dealPrice": "2억",
    "leasePrice": "2억",
    "rentPrice": "0억",
    "tradeTypes": "매매,전세,월세",
    "dealCount": 16,
    "leaseCount": 4,
    "rentCount": 12,
    "minArea": 29.4,
    "maxArea": 33.92
  },
  {
    "lat": 37.486502,
    "lng": 127.033545,
    "name": "대우양재디오빌(주상복합)",
    "address": "서울 서초구 서초동",
    "city": "서울",
    "gu": "서초구",
    "dong": "서초동",
    "constructionYear": 2004,
    "totalUnits": 155,
    "dealPrice": "2억",
    "leasePrice": null,
    "rentPrice": "0억",
    "tradeTypes": "매매,월세",
    "dealCount": 16,
    "leaseCount": 0,
    "rentCount": 1,
    "minArea": 32.11,
    "maxArea": 43.76
  },
  {
    "lat": 37.493481,
    "lng": 127.017827,
    "name": "서초예성그린",
    "address": "서울 서초구 서초동",
    "city": "서울",
    "gu": "서초구",
    "dong": "서초동",
    "constructionYear": 2003,
    "totalUnits": 36,
    "dealPrice": "11억",
    "leasePrice": null,
    "rentPrice": null,
    "tradeTypes": "매매",
    "dealCount": 14,
    "leaseCount": 0,
    "rentCount": 0,
    "minArea": 67.16,
    "maxArea": 119.43
  },
  {
    "lat": 37.48864,
    "lng": 127.01725,
    "name": "서초로얄",
    "address": "서울 서초구 서초동",
    "city": "서울",
    "gu": "서초구",
    "dong": "서초동",
    "constructionYear": 2001,
    "totalUnits": 40,
    "dealPrice": "11억",
    "leasePrice": "12억",
    "rentPrice": null,
    "tradeTypes": "매매,전세",
    "dealCount": 8,
    "leaseCount": 6,
    "rentCount": 0,
    "minArea": 75.77,
    "maxArea": 143.66
  },
  {
    "lat": 37.493636,
    "lng": 127.018853,
    "name": "수광빌라트",
    "address": "서울 서초구 서초동",
    "city": "서울",
    "gu": "서초구",
    "dong": "서초동",
    "constructionYear": 1996,
    "totalUnits": 12,
    "dealPrice": "23억",
    "leasePrice": null,
    "rentPrice": null,
    "tradeTypes": "매매",
    "dealCount": 8,
    "leaseCount": 0,
    "rentCount": 0,
    "minArea": 228.36,
    "maxArea": 228.36
  },
  {
    "lat": 37.493804,
    "lng": 127.028566,
    "name": "서초나산스위트(주상복합)",
    "address": "서울 서초구 서초동",
    "city": "서울",
    "gu": "서초구",
    "dong": "서초동",
    "constructionYear": 1996,
    "totalUnits": 24,
    "dealPrice": "20억",
    "leasePrice": "12억",
    "rentPrice": null,
    "tradeTypes": "매매,전세",
    "dealCount": 3,
    "leaseCount": 3,
    "rentCount": 0,
    "minArea": 169.47,
    "maxArea": 198.96
  },
  {
    "lat": 37.49433,
    "lng": 127.02118,
    "name": "서초한일",
    "address": "서울 서초구 서초동",
    "city": "서울",
    "gu": "서초구",
    "dong": "서초동",
    "constructionYear": 1997,
    "totalUnits": 86,
    "dealPrice": "17억",
    "leasePrice": null,
    "rentPrice": null,
    "tradeTypes": "매매",
    "dealCount": 8,
    "leaseCount": 0,
    "rentCount": 0,
    "minArea": 108.87,
    "maxArea": 108.87
  },
  {
    "lat": 37.487442,
    "lng": 127.02737,
    "name": "서초한양수자인",
    "address": "서울 서초구 서초동",
    "city": "서울",
    "gu": "서초구",
    "dong": "서초동",
    "constructionYear": 2013,
    "totalUnits": 24,
    "dealPrice": "14억",
    "leasePrice": null,
    "rentPrice": null,
    "tradeTypes": "매매",
    "dealCount": 8,
    "leaseCount": 0,
    "rentCount": 0,
    "minArea": 102.81,
    "maxArea": 103.08
  },
  {
    "lat": 37.488899,
    "lng": 127.020544,
    "name": "서초힐하우스",
    "address": "서울 서초구 서초동",
    "city": "서울",
    "gu": "서초구",
    "dong": "서초동",
    "constructionYear": 2002,
    "totalUnits": 15,
    "dealPrice": "13억",
    "leasePrice": null,
    "rentPrice": null,
    "tradeTypes": "매매",
    "dealCount": 1,
    "leaseCount": 0,
    "rentCount": 0,
    "minArea": 133.4,
    "maxArea": 133.4
  },
  {
    "lat": 37.485599,
    "lng": 127.032525,
    "name": "서초노블레스(1362-10,주상복합)",
    "address": "서울 서초구 서초동",
    "city": "서울",
    "gu": "서초구",
    "dong": "서초동",
    "constructionYear": 2019,
    "totalUnits": 50,
    "dealPrice": "5억",
    "leasePrice": null,
    "rentPrice": null,
    "tradeTypes": "매매",
    "dealCount": 11,
    "leaseCount": 0,
    "rentCount": 0,
    "minArea": 39.34,
    "maxArea": 42.75
  },
  {
    "lat": 37.490473,
    "lng": 127.029932,
    "name": "풍림아이원플러스(주상복합)",
    "address": "서울 서초구 서초동",
    "city": "서울",
    "gu": "서초구",
    "dong": "서초동",
    "constructionYear": 2004,
    "totalUnits": 200,
    "dealPrice": "3억",
    "leasePrice": null,
    "rentPrice": "0억",
    "tradeTypes": "매매,월세",
    "dealCount": 15,
    "leaseCount": 0,
    "rentCount": 2,
    "minArea": 37.54,
    "maxArea": 48.76
  },
  {
    "lat": 37.494245,
    "lng": 127.017602,
    "name": "서초대우아이빌(주상복합)",
    "address": "서울 서초구 서초동",
    "city": "서울",
    "gu": "서초구",
    "dong": "서초동",
    "constructionYear": 2003,
    "totalUnits": 215,
    "dealPrice": "3억",
    "leasePrice": null,
    "rentPrice": null,
    "tradeTypes": "매매",
    "dealCount": 7,
    "leaseCount": 0,
    "rentCount": 0,
    "minArea": 43.47,
    "maxArea": 79.78
  },
  {
    "lat": 37.492503,
    "lng": 127.01724,
    "name": "서초녹원",
    "address": "서울 서초구 서초동",
    "city": "서울",
    "gu": "서초구",
    "dong": "서초동",
    "constructionYear": 1997,
    "totalUnits": 35,
    "dealPrice": "17억",
    "leasePrice": null,
    "rentPrice": null,
    "tradeTypes": "매매",
    "dealCount": 14,
    "leaseCount": 0,
    "rentCount": 0,
    "minArea": 104.6,
    "maxArea": 148.2
  },
  {
    "lat": 37.487256,
    "lng": 127.027735,
    "name": "서초자연인(도시형)",
    "address": "서울 서초구 서초동",
    "city": "서울",
    "gu": "서초구",
    "dong": "서초동",
    "constructionYear": 2012,
    "totalUnits": 29,
    "dealPrice": "3억",
    "leasePrice": null,
    "rentPrice": null,
    "tradeTypes": "매매",
    "dealCount": 5,
    "leaseCount": 0,
    "rentCount": 0,
    "minArea": 30.72,
    "maxArea": 52.4
  },
  {
    "lat": 37.492504,
    "lng": 127.023799,
    "name": "신동아2차",
    "address": "서울 서초구 서초동",
    "city": "서울",
    "gu": "서초구",
    "dong": "서초동",
    "constructionYear": 1979,
    "totalUnits": 104,
    "dealPrice": "45억",
    "leasePrice": null,
    "rentPrice": null,
    "tradeTypes": "매매",
    "dealCount": 11,
    "leaseCount": 0,
    "rentCount": 0,
    "minArea": 156.46,
    "maxArea": 180.53
  },
  {
    "lat": 37.486377,
    "lng": 127.030403,
    "name": "롯데캐슬주피터",
    "address": "서울 서초구 서초동",
    "city": "서울",
    "gu": "서초구",
    "dong": "서초동",
    "constructionYear": 2003,
    "totalUnits": 110,
    "dealPrice": "27억",
    "leasePrice": "13억",
    "rentPrice": "0억",
    "tradeTypes": "매매,전세,월세",
    "dealCount": 4,
    "leaseCount": 1,
    "rentCount": 2,
    "minArea": 186.25,
    "maxArea": 187.99
  },
  {
    "lat": 37.487807,
    "lng": 127.023589,
    "name": "서초풍림아이원",
    "address": "서울 서초구 서초동",
    "city": "서울",
    "gu": "서초구",
    "dong": "서초동",
    "constructionYear": 2004,
    "totalUnits": 36,
    "dealPrice": "16억",
    "leasePrice": "8억",
    "rentPrice": "0억",
    "tradeTypes": "매매,전세,월세",
    "dealCount": 5,
    "leaseCount": 19,
    "rentCount": 10,
    "minArea": 135.85,
    "maxArea": 138.12
  },
  {
    "lat": 37.485856,
    "lng": 127.029985,
    "name": "서초블리스",
    "address": "서울 서초구 서초동",
    "city": "서울",
    "gu": "서초구",
    "dong": "서초동",
    "constructionYear": 2020,
    "totalUnits": 23,
    "dealPrice": "8억",
    "leasePrice": null,
    "rentPrice": null,
    "tradeTypes": "매매",
    "dealCount": 11,
    "leaseCount": 0,
    "rentCount": 0,
    "minArea": 49.57,
    "maxArea": 49.57
  },
  {
    "lat": 37.486801,
    "lng": 127.028329,
    "name": "서초트라팰리스(주상복합)",
    "address": "서울 서초구 서초동",
    "city": "서울",
    "gu": "서초구",
    "dong": "서초동",
    "constructionYear": 2005,
    "totalUnits": 257,
    "dealPrice": "18억",
    "leasePrice": "9억",
    "rentPrice": "0억",
    "tradeTypes": "매매,전세,월세",
    "dealCount": 46,
    "leaseCount": 15,
    "rentCount": 10,
    "minArea": 102.74,
    "maxArea": 186.06
  },
  {
    "lat": 37.49346,
    "lng": 127.01552,
    "name": "서초리시온(주상복합)",
    "address": "서울 서초구 서초동",
    "city": "서울",
    "gu": "서초구",
    "dong": "서초동",
    "constructionYear": 2003,
    "totalUnits": 293,
    "dealPrice": "5억",
    "leasePrice": "4억",
    "rentPrice": "0억",
    "tradeTypes": "매매,전세,월세",
    "dealCount": 42,
    "leaseCount": 13,
    "rentCount": 7,
    "minArea": 41.85,
    "maxArea": 63.82
  },
  {
    "lat": 37.494949,
    "lng": 127.018814,
    "name": "삼환바우스(주상복합)",
    "address": "서울 서초구 서초동",
    "city": "서울",
    "gu": "서초구",
    "dong": "서초동",
    "constructionYear": 2006,
    "totalUnits": 40,
    "dealPrice": "13억",
    "leasePrice": "10억",
    "rentPrice": null,
    "tradeTypes": "매매,전세",
    "dealCount": 6,
    "leaseCount": 13,
    "rentCount": 0,
    "minArea": 101.17,
    "maxArea": 101.17
  },
  {
    "lat": 37.492833,
    "lng": 127.025172,
    "name": "래미안서초에스티지",
    "address": "서울 서초구 서초동",
    "city": "서울",
    "gu": "서초구",
    "dong": "서초동",
    "constructionYear": 2016,
    "totalUnits": 421,
    "dealPrice": "37억",
    "leasePrice": "13억",
    "rentPrice": "0억",
    "tradeTypes": "매매,전세,월세",
    "dealCount": 57,
    "leaseCount": 53,
    "rentCount": 51,
    "minArea": 109.34,
    "maxArea": 174.17
  },
  {
    "lat": 37.490169,
    "lng": 127.032854,
    "name": "강남웅진베어스빌(도시형)",
    "address": "서울 서초구 서초동",
    "city": "서울",
    "gu": "서초구",
    "dong": "서초동",
    "constructionYear": 2019,
    "totalUnits": 25,
    "dealPrice": "4억",
    "leasePrice": null,
    "rentPrice": "0억",
    "tradeTypes": "매매,월세",
    "dealCount": 1,
    "leaseCount": 0,
    "rentCount": 1,
    "minArea": 25.04,
    "maxArea": 25.04
  },
  {
    "lat": 37.487219,
    "lng": 127.027645,
    "name": "서초자연인",
    "address": "서울 서초구 서초동",
    "city": "서울",
    "gu": "서초구",
    "dong": "서초동",
    "constructionYear": 2013,
    "totalUnits": 29,
    "dealPrice": "3억",
    "leasePrice": null,
    "rentPrice": null,
    "tradeTypes": "매매",
    "dealCount": 10,
    "leaseCount": 0,
    "rentCount": 0,
    "minArea": 31.95,
    "maxArea": 54.66
  },
  {
    "lat": 37.492224,
    "lng": 127.018296,
    "name": "서초래미안7차",
    "address": "서울 서초구 서초동",
    "city": "서울",
    "gu": "서초구",
    "dong": "서초동",
    "constructionYear": 2006,
    "totalUnits": 79,
    "dealPrice": "26억",
    "leasePrice": null,
    "rentPrice": "0억",
    "tradeTypes": "매매,월세",
    "dealCount": 1,
    "leaseCount": 0,
    "rentCount": 1,
    "minArea": 173.19,
    "maxArea": 173.19
  },
  {
    "lat": 37.492799,
    "lng": 127.021421,
    "name": "서초현대3차",
    "address": "서울 서초구 서초동",
    "city": "서울",
    "gu": "서초구",
    "dong": "서초동",
    "constructionYear": 1997,
    "totalUnits": 96,
    "dealPrice": "21억",
    "leasePrice": null,
    "rentPrice": null,
    "tradeTypes": "매매",
    "dealCount": 2,
    "leaseCount": 0,
    "rentCount": 0,
    "minArea": 102.63,
    "maxArea": 102.63
  },
  {
    "lat": 37.491931,
    "lng": 127.022167,
    "name": "월드메르디앙(1634-9)",
    "address": "서울 서초구 서초동",
    "city": "서울",
    "gu": "서초구",
    "dong": "서초동",
    "constructionYear": 2002,
    "totalUnits": 37,
    "dealPrice": "28억",
    "leasePrice": "15억",
    "rentPrice": "0억",
    "tradeTypes": "매매,전세,월세",
    "dealCount": 5,
    "leaseCount": 4,
    "rentCount": 5,
    "minArea": 152.81,
    "maxArea": 152.81
  },
  {
    "lat": 37.487598,
    "lng": 127.021948,
    "name": "서초드림하이츠",
    "address": "서울 서초구 서초동",
    "city": "서울",
    "gu": "서초구",
    "dong": "서초동",
    "constructionYear": 2003,
    "totalUnits": 10,
    "dealPrice": "13억",
    "leasePrice": null,
    "rentPrice": null,
    "tradeTypes": "매매",
    "dealCount": 9,
    "leaseCount": 0,
    "rentCount": 0,
    "minArea": 112.16,
    "maxArea": 132.82
  },
  {
    "lat": 37.492175,
    "lng": 127.030925,
    "name": "역삼디오슈페리움(주상복합)",
    "address": "서울 서초구 서초동",
    "city": "서울",
    "gu": "서초구",
    "dong": "서초동",
    "constructionYear": 2006,
    "totalUnits": 60,
    "dealPrice": "11억",
    "leasePrice": "8억",
    "rentPrice": null,
    "tradeTypes": "매매,전세",
    "dealCount": 5,
    "leaseCount": 1,
    "rentCount": 0,
    "minArea": 65.78,
    "maxArea": 119.11
  },
  {
    "lat": 37.488675,
    "lng": 127.022865,
    "name": "서초극동스타클래스2",
    "address": "서울 서초구 서초동",
    "city": "서울",
    "gu": "서초구",
    "dong": "서초동",
    "constructionYear": 2006,
    "totalUnits": 60,
    "dealPrice": "16억",
    "leasePrice": "8억",
    "rentPrice": "0억",
    "tradeTypes": "매매,전세,월세",
    "dealCount": 18,
    "leaseCount": 19,
    "rentCount": 6,
    "minArea": 101.2,
    "maxArea": 105.31
  },
  {
    "lat": 37.493965,
    "lng": 127.017771,
    "name": "서초지에스타워(주상복합)",
    "address": "서울 서초구 서초동",
    "city": "서울",
    "gu": "서초구",
    "dong": "서초동",
    "constructionYear": 2022,
    "totalUnits": 54,
    "dealPrice": "2억",
    "leasePrice": null,
    "rentPrice": "0억",
    "tradeTypes": "매매,월세",
    "dealCount": 5,
    "leaseCount": 0,
    "rentCount": 5,
    "minArea": 14.8,
    "maxArea": 30.69
  },
  {
    "lat": 37.492001,
    "lng": 127.032841,
    "name": "역삼한스빌",
    "address": "서울 서초구 서초동",
    "city": "서울",
    "gu": "서초구",
    "dong": "서초동",
    "constructionYear": 1996,
    "totalUnits": 216,
    "dealPrice": "4억",
    "leasePrice": "3억",
    "rentPrice": "0억",
    "tradeTypes": "매매,전세,월세",
    "dealCount": 8,
    "leaseCount": 12,
    "rentCount": 2,
    "minArea": 45.98,
    "maxArea": 57.7
  },
  {
    "lat": 37.489144,
    "lng": 127.025957,
    "name": "서초그랑자이",
    "address": "서울 서초구 서초동",
    "city": "서울",
    "gu": "서초구",
    "dong": "서초동",
    "constructionYear": 2021,
    "totalUnits": 1446,
    "dealPrice": "34억",
    "leasePrice": "12억",
    "rentPrice": "0억",
    "tradeTypes": "매매,전세,월세",
    "dealCount": 63,
    "leaseCount": 198,
    "rentCount": 256,
    "minArea": 84.77,
    "maxArea": 148.8
  },
  {
    "lat": 37.493698,
    "lng": 127.030942,
    "name": "SK허브젠(주상복합)",
    "address": "서울 서초구 서초동",
    "city": "서울",
    "gu": "서초구",
    "dong": "서초동",
    "constructionYear": 2005,
    "totalUnits": 56,
    "dealPrice": "15억",
    "leasePrice": "8억",
    "rentPrice": "0억",
    "tradeTypes": "매매,전세,월세",
    "dealCount": 4,
    "leaseCount": 5,
    "rentCount": 13,
    "minArea": 91.72,
    "maxArea": 108.4
  },
  {
    "lat": 37.494931,
    "lng": 127.020929,
    "name": "서초에지앙",
    "address": "서울 서초구 서초동",
    "city": "서울",
    "gu": "서초구",
    "dong": "서초동",
    "constructionYear": 2006,
    "totalUnits": 19,
    "dealPrice": null,
    "leasePrice": "9억",
    "rentPrice": null,
    "tradeTypes": "전세",
    "dealCount": 0,
    "leaseCount": 3,
    "rentCount": 0,
    "minArea": 117.3,
    "maxArea": 117.3
  },
  {
    "lat": 37.485282,
    "lng": 127.026641,
    "name": "동원베네스트",
    "address": "서울 서초구 서초동",
    "city": "서울",
    "gu": "서초구",
    "dong": "서초동",
    "constructionYear": 2002,
    "totalUnits": 126,
    "dealPrice": null,
    "leasePrice": "9억",
    "rentPrice": "0억",
    "tradeTypes": "전세,월세",
    "dealCount": 0,
    "leaseCount": 9,
    "rentCount": 8,
    "minArea": 105.53,
    "maxArea": 142.48
  },
  {
    "lat": 37.49088,
    "lng": 127.02138,
    "name": "롯데캐슬SPA",
    "address": "서울 서초구 서초동",
    "city": "서울",
    "gu": "서초구",
    "dong": "서초동",
    "constructionYear": 2003,
    "totalUnits": 58,
    "dealPrice": null,
    "leasePrice": "17억",
    "rentPrice": null,
    "tradeTypes": "전세",
    "dealCount": 0,
    "leaseCount": 8,
    "rentCount": 0,
    "minArea": 220.45,
    "maxArea": 220.45
  },
  {
    "lat": 37.487581,
    "lng": 127.027877,
    "name": "동아(도시형)",
    "address": "서울 서초구 서초동",
    "city": "서울",
    "gu": "서초구",
    "dong": "서초동",
    "constructionYear": 2015,
    "totalUnits": 62,
    "dealPrice": null,
    "leasePrice": null,
    "rentPrice": "0억",
    "tradeTypes": "월세",
    "dealCount": 0,
    "leaseCount": 0,
    "rentCount": 1,
    "minArea": 47.71,
    "maxArea": 47.71
  },
  {
    "lat": 37.494979,
    "lng": 127.027836,
    "name": "J타워(도시형)",
    "address": "서울 서초구 서초동",
    "city": "서울",
    "gu": "서초구",
    "dong": "서초동",
    "constructionYear": 2019,
    "totalUnits": 17,
    "dealPrice": null,
    "leasePrice": null,
    "rentPrice": "0억",
    "tradeTypes": "월세",
    "dealCount": 0,
    "leaseCount": 0,
    "rentCount": 2,
    "minArea": 34.94,
    "maxArea": 44.25
  },
  {
    "lat": 37.489687,
    "lng": 127.031051,
    "name": "에피소드강남262(민간임대,도시형)",
    "address": "서울 서초구 서초동",
    "city": "서울",
    "gu": "서초구",
    "dong": "서초동",
    "constructionYear": 2021,
    "totalUnits": 149,
    "dealPrice": null,
    "leasePrice": null,
    "rentPrice": "0억",
    "tradeTypes": "월세",
    "dealCount": 0,
    "leaseCount": 0,
    "rentCount": 22,
    "minArea": 32.52,
    "maxArea": 69.11
  },
  {
    "lat": 37.509484,
    "lng": 127.011449,
    "name": "한신타운",
    "address": "서울 서초구 반포동",
    "city": "서울",
    "gu": "서초구",
    "dong": "반포동",
    "constructionYear": 1989,
    "totalUnits": 110,
    "dealPrice": "27억",
    "leasePrice": "7억",
    "rentPrice": null,
    "tradeTypes": "매매,전세",
    "dealCount": 2,
    "leaseCount": 10,
    "rentCount": 0,
    "minArea": 98.02,
    "maxArea": 98.02
  },
  {
    "lat": 37.51042,
    "lng": 127.011503,
    "name": "신반포20차",
    "address": "서울 서초구 반포동",
    "city": "서울",
    "gu": "서초구",
    "dong": "반포동",
    "constructionYear": 1983,
    "totalUnits": 112,
    "dealPrice": "50억",
    "leasePrice": "12억",
    "rentPrice": null,
    "tradeTypes": "매매,전세",
    "dealCount": 2,
    "leaseCount": 3,
    "rentCount": 0,
    "minArea": 155.6,
    "maxArea": 155.6
  },
  {
    "lat": 37.512173,
    "lng": 127.008623,
    "name": "신반포7차",
    "address": "서울 서초구 반포동",
    "city": "서울",
    "gu": "서초구",
    "dong": "반포동",
    "constructionYear": 1980,
    "totalUnits": 320,
    "dealPrice": "44억",
    "leasePrice": "6억",
    "rentPrice": null,
    "tradeTypes": "매매,전세",
    "dealCount": 29,
    "leaseCount": 19,
    "rentCount": 0,
    "minArea": 116.4,
    "maxArea": 153.62
  },
  {
    "lat": 37.510166,
    "lng": 127.008408,
    "name": "신반포자이",
    "address": "서울 서초구 반포동",
    "city": "서울",
    "gu": "서초구",
    "dong": "반포동",
    "constructionYear": 2018,
    "totalUnits": 607,
    "dealPrice": "38억",
    "leasePrice": "11억",
    "rentPrice": null,
    "tradeTypes": "매매,전세",
    "dealCount": 66,
    "leaseCount": 95,
    "rentCount": 0,
    "minArea": 85.34,
    "maxArea": 150.53
  },
  {
    "lat": 37.511783,
    "lng": 127.005316,
    "name": "잠원시티",
    "address": "서울 서초구 반포동",
    "city": "서울",
    "gu": "서초구",
    "dong": "반포동",
    "constructionYear": 2017,
    "totalUnits": 29,
    "dealPrice": "6억",
    "leasePrice": "3억",
    "rentPrice": null,
    "tradeTypes": "매매,전세",
    "dealCount": 1,
    "leaseCount": 1,
    "rentCount": 0,
    "minArea": 31.09,
    "maxArea": 31.09
  },
  {
    "lat": 37.509407,
    "lng": 127.001195,
    "name": "신반포2차",
    "address": "서울 서초구 반포동",
    "city": "서울",
    "gu": "서초구",
    "dong": "반포동",
    "constructionYear": 1978,
    "totalUnits": 1572,
    "dealPrice": "38억",
    "leasePrice": "4억",
    "rentPrice": null,
    "tradeTypes": "매매,전세",
    "dealCount": 178,
    "leaseCount": 155,
    "rentCount": 0,
    "minArea": 74.18,
    "maxArea": 164.72
  },
  {
    "lat": 37.514861,
    "lng": 127.009347,
    "name": "신반포25차",
    "address": "서울 서초구 반포동",
    "city": "서울",
    "gu": "서초구",
    "dong": "반포동",
    "constructionYear": 1984,
    "totalUnits": 169,
    "dealPrice": "42억",
    "leasePrice": "7억",
    "rentPrice": null,
    "tradeTypes": "매매,전세",
    "dealCount": 2,
    "leaseCount": 10,
    "rentCount": 0,
    "minArea": 113.97,
    "maxArea": 113.97
  },
  {
    "lat": 37.512231,
    "lng": 127.005908,
    "name": "오페라하우스",
    "address": "서울 서초구 반포동",
    "city": "서울",
    "gu": "서초구",
    "dong": "반포동",
    "constructionYear": 1997,
    "totalUnits": 19,
    "dealPrice": "60억",
    "leasePrice": "16억",
    "rentPrice": null,
    "tradeTypes": "매매,전세",
    "dealCount": 17,
    "leaseCount": 2,
    "rentCount": 0,
    "minArea": 256.09,
    "maxArea": 256.09
  },
  {
    "lat": 37.514715,
    "lng": 127.014155,
    "name": "금호베스트빌",
    "address": "서울 서초구 반포동",
    "city": "서울",
    "gu": "서초구",
    "dong": "반포동",
    "constructionYear": 2002,
    "totalUnits": 117,
    "dealPrice": "34억",
    "leasePrice": "10억",
    "rentPrice": null,
    "tradeTypes": "매매,전세",
    "dealCount": 7,
    "leaseCount": 21,
    "rentCount": 0,
    "minArea": 101.34,
    "maxArea": 166.07
  },
  {
    "lat": 37.510812,
    "lng": 127.00647,
    "name": "킴스빌리지",
    "address": "서울 서초구 반포동",
    "city": "서울",
    "gu": "서초구",
    "dong": "반포동",
    "constructionYear": 1996,
    "totalUnits": 160,
    "dealPrice": "9억",
    "leasePrice": "4억",
    "rentPrice": null,
    "tradeTypes": "매매,전세",
    "dealCount": 5,
    "leaseCount": 4,
    "rentCount": 0,
    "minArea": 34.79,
    "maxArea": 50.25
  },
  {
    "lat": 37.514225,
    "lng": 127.010179,
    "name": "신반포19차",
    "address": "서울 서초구 반포동",
    "city": "서울",
    "gu": "서초구",
    "dong": "반포동",
    "constructionYear": 1982,
    "totalUnits": 242,
    "dealPrice": "40억",
    "leasePrice": "6억",
    "rentPrice": null,
    "tradeTypes": "매매,전세",
    "dealCount": 13,
    "leaseCount": 65,
    "rentCount": 0,
    "minArea": 119.01,
    "maxArea": 120.96
  },
  {
    "lat": 37.513356,
    "lng": 127.009021,
    "name": "한신로얄",
    "address": "서울 서초구 반포동",
    "city": "서울",
    "gu": "서초구",
    "dong": "반포동",
    "constructionYear": 1992,
    "totalUnits": 208,
    "dealPrice": "27억",
    "leasePrice": "7억",
    "rentPrice": null,
    "tradeTypes": "매매,전세",
    "dealCount": 9,
    "leaseCount": 23,
    "rentCount": 0,
    "minArea": 90.37,
    "maxArea": 90.43
  },
  {
    "lat": 37.514048,
    "lng": 127.007581,
    "name": "메이플라워",
    "address": "서울 서초구 반포동",
    "city": "서울",
    "gu": "서초구",
    "dong": "반포동",
    "constructionYear": 2003,
    "totalUnits": 15,
    "dealPrice": "30억",
    "leasePrice": null,
    "rentPrice": null,
    "tradeTypes": "매매",
    "dealCount": 1,
    "leaseCount": 0,
    "rentCount": 0,
    "minArea": 95.29,
    "maxArea": 95.29
  },
  {
    "lat": 37.506879,
    "lng": 127.000584,
    "name": "잠원위브",
    "address": "서울 서초구 반포동",
    "city": "서울",
    "gu": "서초구",
    "dong": "반포동",
    "constructionYear": 2003,
    "totalUnits": 49,
    "dealPrice": "14억",
    "leasePrice": null,
    "rentPrice": null,
    "tradeTypes": "매매",
    "dealCount": 6,
    "leaseCount": 0,
    "rentCount": 0,
    "minArea": 64.71,
    "maxArea": 89.67
  },
  {
    "lat": 37.511531,
    "lng": 127.005516,
    "name": "신반포중앙하이츠",
    "address": "서울 서초구 반포동",
    "city": "서울",
    "gu": "서초구",
    "dong": "반포동",
    "constructionYear": 2021,
    "totalUnits": 29,
    "dealPrice": "20억",
    "leasePrice": "6억",
    "rentPrice": null,
    "tradeTypes": "매매,전세",
    "dealCount": 4,
    "leaseCount": 3,
    "rentCount": 0,
    "minArea": 94.98,
    "maxArea": 107.21
  },
  {
    "lat": 37.508354,
    "lng": 127.006001,
    "name": "신반포4차",
    "address": "서울 서초구 반포동",
    "city": "서울",
    "gu": "서초구",
    "dong": "반포동",
    "constructionYear": 1979,
    "totalUnits": 1212,
    "dealPrice": "49억",
    "leasePrice": "6억",
    "rentPrice": null,
    "tradeTypes": "매매,전세",
    "dealCount": 215,
    "leaseCount": 192,
    "rentCount": 0,
    "minArea": 103.57,
    "maxArea": 168.64
  },
  {
    "lat": 37.513292,
    "lng": 127.007948,
    "name": "잠원한신그린",
    "address": "서울 서초구 반포동",
    "city": "서울",
    "gu": "서초구",
    "dong": "반포동",
    "constructionYear": 1993,
    "totalUnits": 150,
    "dealPrice": "34억",
    "leasePrice": "8억",
    "rentPrice": null,
    "tradeTypes": "매매,전세",
    "dealCount": 5,
    "leaseCount": 11,
    "rentCount": 0,
    "minArea": 96.5,
    "maxArea": 96.5
  },
  {
    "lat": 37.511737,
    "lng": 127.006039,
    "name": "블루힐하우스",
    "address": "서울 서초구 반포동",
    "city": "서울",
    "gu": "서초구",
    "dong": "반포동",
    "constructionYear": 1999,
    "totalUnits": 125,
    "dealPrice": "30억",
    "leasePrice": "8억",
    "rentPrice": null,
    "tradeTypes": "매매,전세",
    "dealCount": 3,
    "leaseCount": 21,
    "rentCount": 0,
    "minArea": 80.07,
    "maxArea": 113.1
  },
  {
    "lat": 37.509144,
    "lng": 127.010552,
    "name": "동아",
    "address": "서울 서초구 반포동",
    "city": "서울",
    "gu": "서초구",
    "dong": "반포동",
    "constructionYear": 2002,
    "totalUnits": 991,
    "dealPrice": "30억",
    "leasePrice": "8억",
    "rentPrice": null,
    "tradeTypes": "매매,전세",
    "dealCount": 53,
    "leaseCount": 145,
    "rentCount": 0,
    "minArea": 81.33,
    "maxArea": 109.07
  },
  {
    "lat": 37.514868,
    "lng": 127.007489,
    "name": "아크로리버뷰신반포",
    "address": "서울 서초구 반포동",
    "city": "서울",
    "gu": "서초구",
    "dong": "반포동",
    "constructionYear": 2018,
    "totalUnits": 595,
    "dealPrice": "50억",
    "leasePrice": "14억",
    "rentPrice": null,
    "tradeTypes": "매매,전세",
    "dealCount": 54,
    "leaseCount": 89,
    "rentCount": 0,
    "minArea": 109.57,
    "maxArea": 117.92
  },
  {
    "lat": 37.51098,
    "lng": 127.00606,
    "name": "반포한신타워",
    "address": "서울 서초구 반포동",
    "city": "서울",
    "gu": "서초구",
    "dong": "반포동",
    "constructionYear": 1996,
    "totalUnits": 250,
    "dealPrice": "28억",
    "leasePrice": "6억",
    "rentPrice": null,
    "tradeTypes": "매매,전세",
    "dealCount": 13,
    "leaseCount": 25,
    "rentCount": 0,
    "minArea": 84.91,
    "maxArea": 159.44
  },
  {
    "lat": 37.509064,
    "lng": 127.012838,
    "name": "잠원현대훼밀리",
    "address": "서울 서초구 반포동",
    "city": "서울",
    "gu": "서초구",
    "dong": "반포동",
    "constructionYear": 1997,
    "totalUnits": 113,
    "dealPrice": "25억",
    "leasePrice": null,
    "rentPrice": null,
    "tradeTypes": "매매",
    "dealCount": 6,
    "leaseCount": 0,
    "rentCount": 0,
    "minArea": 73.43,
    "maxArea": 104.2
  },
  {
    "lat": 37.512472,
    "lng": 127.009841,
    "name": "현대실크빌라트",
    "address": "서울 서초구 반포동",
    "city": "서울",
    "gu": "서초구",
    "dong": "반포동",
    "constructionYear": 1999,
    "totalUnits": 19,
    "dealPrice": "48억",
    "leasePrice": null,
    "rentPrice": null,
    "tradeTypes": "매매",
    "dealCount": 1,
    "leaseCount": 0,
    "rentCount": 0,
    "minArea": 286.81,
    "maxArea": 286.81
  },
  {
    "lat": 37.508167,
    "lng": 127.009095,
    "name": "잠원브라운스톤",
    "address": "서울 서초구 반포동",
    "city": "서울",
    "gu": "서초구",
    "dong": "반포동",
    "constructionYear": 2003,
    "totalUnits": 83,
    "dealPrice": "33억",
    "leasePrice": null,
    "rentPrice": null,
    "tradeTypes": "매매",
    "dealCount": 8,
    "leaseCount": 0,
    "rentCount": 0,
    "minArea": 103.19,
    "maxArea": 103.19
  },
  {
    "lat": 37.507257,
    "lng": 127.00161,
    "name": "반포센트럴자이",
    "address": "서울 서초구 반포동",
    "city": "서울",
    "gu": "서초구",
    "dong": "반포동",
    "constructionYear": 2020,
    "totalUnits": 757,
    "dealPrice": "40억",
    "leasePrice": "13억",
    "rentPrice": null,
    "tradeTypes": "매매,전세",
    "dealCount": 161,
    "leaseCount": 252,
    "rentCount": 0,
    "minArea": 82.17,
    "maxArea": 155.11
  },
  {
    "lat": 37.507594,
    "lng": 127.002832,
    "name": "반포르엘",
    "address": "서울 서초구 반포동",
    "city": "서울",
    "gu": "서초구",
    "dong": "반포동",
    "constructionYear": 2022,
    "totalUnits": 596,
    "dealPrice": "49억",
    "leasePrice": "13억",
    "rentPrice": null,
    "tradeTypes": "매매,전세",
    "dealCount": 78,
    "leaseCount": 84,
    "rentCount": 0,
    "minArea": 110.28,
    "maxArea": 156.21
  },
  {
    "lat": 37.50884,
    "lng": 127.002318,
    "name": "반포르엘2차",
    "address": "서울 서초구 반포동",
    "city": "서울",
    "gu": "서초구",
    "dong": "반포동",
    "constructionYear": 2022,
    "totalUnits": 280,
    "dealPrice": "58억",
    "leasePrice": null,
    "rentPrice": null,
    "tradeTypes": "매매",
    "dealCount": 1,
    "leaseCount": 0,
    "rentCount": 0,
    "minArea": 132.36,
    "maxArea": 132.36
  },
  {
    "lat": 37.51158,
    "lng": 127.013089,
    "name": "메이플자이",
    "address": "서울 서초구 반포동",
    "city": "서울",
    "gu": "서초구",
    "dong": "반포동",
    "constructionYear": 2025,
    "totalUnits": 3307,
    "dealPrice": "35억",
    "leasePrice": "9억",
    "rentPrice": null,
    "tradeTypes": "매매,전세",
    "dealCount": 404,
    "leaseCount": 3650,
    "rentCount": 0,
    "minArea": 72.14,
    "maxArea": 207.46
  },
  {
    "lat": 37.507538,
    "lng": 127.013605,
    "name": "반포자이",
    "address": "서울 서초구 반포동",
    "city": "서울",
    "gu": "서초구",
    "dong": "반포동",
    "constructionYear": 2009,
    "totalUnits": 3410,
    "dealPrice": "35억",
    "leasePrice": "10억",
    "rentPrice": null,
    "tradeTypes": "매매,전세",
    "dealCount": 291,
    "leaseCount": 331,
    "rentCount": 0,
    "minArea": 84.23,
    "maxArea": 301.38
  },
  {
    "lat": 37.514885,
    "lng": 127.008542,
    "name": "잠원씨제이빌리지",
    "address": "서울 서초구 반포동",
    "city": "서울",
    "gu": "서초구",
    "dong": "반포동",
    "constructionYear": 2005,
    "totalUnits": 17,
    "dealPrice": "48억",
    "leasePrice": "15억",
    "rentPrice": null,
    "tradeTypes": "매매,전세",
    "dealCount": 1,
    "leaseCount": 2,
    "rentCount": 0,
    "minArea": 133.98,
    "maxArea": 133.98
  },
  {
    "lat": 37.514334,
    "lng": 127.008403,
    "name": "신반포청구",
    "address": "서울 서초구 반포동",
    "city": "서울",
    "gu": "서초구",
    "dong": "반포동",
    "constructionYear": 1998,
    "totalUnits": 347,
    "dealPrice": "33억",
    "leasePrice": "7억",
    "rentPrice": null,
    "tradeTypes": "매매,전세",
    "dealCount": 21,
    "leaseCount": 30,
    "rentCount": 0,
    "minArea": 109.64,
    "maxArea": 109.65
  },
  {
    "lat": 37.5068,
    "lng": 126.998185,
    "name": "래미안원베일리",
    "address": "서울 서초구 반포동",
    "city": "서울",
    "gu": "서초구",
    "dong": "반포동",
    "constructionYear": 2023,
    "totalUnits": 2990,
    "dealPrice": "39억",
    "leasePrice": "13억",
    "rentPrice": null,
    "tradeTypes": "매매,전세",
    "dealCount": 731,
    "leaseCount": 906,
    "rentCount": 0,
    "minArea": 80.38,
    "maxArea": 226.17
  },
  {
    "lat": 37.51006,
    "lng": 127.004806,
    "name": "잠원중앙하이츠(B동)",
    "address": "서울 서초구 반포동",
    "city": "서울",
    "gu": "서초구",
    "dong": "반포동",
    "constructionYear": 1998,
    "totalUnits": 126,
    "dealPrice": "22억",
    "leasePrice": "6억",
    "rentPrice": null,
    "tradeTypes": "매매,전세",
    "dealCount": 1,
    "leaseCount": 14,
    "rentCount": 0,
    "minArea": 83.33,
    "maxArea": 83.33
  },
  {
    "lat": 37.508452,
    "lng": 127.008684,
    "name": "데뜨아르",
    "address": "서울 서초구 반포동",
    "city": "서울",
    "gu": "서초구",
    "dong": "반포동",
    "constructionYear": 2008,
    "totalUnits": 22,
    "dealPrice": null,
    "leasePrice": "13억",
    "rentPrice": null,
    "tradeTypes": "전세",
    "dealCount": 0,
    "leaseCount": 6,
    "rentCount": 0,
    "minArea": 111.55,
    "maxArea": 112.3
  },
  {
    "lat": 37.510234,
    "lng": 127.005222,
    "name": "잠원중앙하이츠(A동)",
    "address": "서울 서초구 반포동",
    "city": "서울",
    "gu": "서초구",
    "dong": "반포동",
    "constructionYear": 1996,
    "totalUnits": 18,
    "dealPrice": null,
    "leasePrice": "20억",
    "rentPrice": null,
    "tradeTypes": "전세",
    "dealCount": 0,
    "leaseCount": 2,
    "rentCount": 0,
    "minArea": 276.99,
    "maxArea": 276.99
  }
]